City_ID,City,Lat,Lng,Max Temp,Humidity,Cloudiness,Wind Speed,Country,Date
0,adamstown,-25.066,-130.1015,20.77,61,100,4.56,PN,1689079883
1,port elizabeth,-33.918,25.5701,17.4,61,75,4.63,ZA,1689079883
2,sambava,-14.2667,50.1667,24.93,76,37,4.35,MG,1689079724
3,lihue,21.9789,-159.3672,25.77,81,100,5.66,US,1689079884
4,blackmans bay,-43.0167,147.3167,11.5,77,100,3.23,AU,1689079885
5,port-aux-francais,-49.35,70.2167,2.86,66,98,11.57,TF,1689079885
6,punta arenas,-53.15,-70.9167,1.06,93,75,2.57,CL,1689079886
7,tolanaro,-25.0319,46.9987,23.04,78,40,6.69,MG,1689079887
8,port alfred,-33.5906,26.891,17.88,61,5,2.24,ZA,1689079652
9,port lincoln,-34.7333,135.8667,11.81,74,5,4.15,AU,1689079743
10,avarua,-21.2078,-159.775,25.03,94,75,4.12,CK,1689079888
11,edinburgh of the seven seas,-37.0676,-12.3116,14.73,98,100,4.96,SH,1689079888
12,ushuaia,-54.8,-68.3,-0.19,80,0,0.0,AR,1689079889
13,iqaluit,63.7506,-68.5145,5.85,100,100,2.57,CA,1689079742
14,olonkinbyen,70.9221,-8.7187,3.68,94,94,4.98,SJ,1689079890
15,aasiaat,68.7098,-52.8699,4.09,98,100,2.83,GL,1689079890
16,ocos,14.5094,-92.1933,26.39,86,81,1.46,GT,1689079892
17,lompoc,34.6391,-120.4579,12.51,97,100,0.0,US,1689079612
18,okhotsk,59.3833,143.3,12.11,83,100,4.17,RU,1689079893
19,saipan,15.1355,145.701,27.39,100,0,3.09,MP,1689079894
20,puerto natales,-51.7236,-72.4875,0.25,80,100,2.06,CL,1689079894
21,salekhard,66.53,66.6019,18.02,40,0,5.68,RU,1689079895
22,shimoda,34.6667,138.95,26.72,93,1,7.95,JP,1689079656
23,lebu,-37.6167,-73.65,7.75,71,100,2.01,CL,1689079640
24,ribeira grande,38.5167,-28.7,22.22,94,75,4.47,PT,1689079744
25,udachny,66.4167,112.4,14.17,91,100,7.74,RU,1689079896
26,nemuro,43.3236,145.575,15.22,100,100,2.17,JP,1689079624
27,n'zeto,-7.2312,12.8666,24.1,74,10,4.69,AO,1689079757
28,cabedelo,-6.9811,-34.8339,26.37,74,20,6.44,BR,1689079898
29,grytviken,-54.2811,-36.5092,-4.12,90,92,3.27,GS,1689079710
30,waitangi,-43.9535,-176.5597,9.34,95,85,1.79,NZ,1689079899
31,dudinka,69.4058,86.1778,9.79,53,100,3.85,RU,1689079899
32,vilyuysk,63.7553,121.6247,19.13,93,84,3.21,RU,1689079900
33,chitipa,-9.7024,33.2697,25.68,36,50,5.13,MW,1689079900
34,atafu village,-8.5421,-172.5159,27.84,79,96,7.39,TK,1689079901
35,kone,-21.0595,164.8658,17.37,71,23,1.87,NC,1689079902
36,elliot lake,46.3834,-82.6331,15.46,79,25,2.62,CA,1689079902
37,mejit,10.2753,170.8646,28.03,81,40,7.01,MH,1689079903
38,margaret river,-33.95,115.0667,16.56,78,36,7.69,AU,1689079903
39,hermanus,-34.4187,19.2345,16.56,56,0,2.44,ZA,1689079904
40,kurumkan,54.3,110.3,20.19,73,1,2.69,RU,1689079904
41,port saint john's,-31.6229,29.5448,18.68,50,5,4.3,ZA,1689079905
42,yellowknife,62.456,-114.3525,13.29,67,75,3.6,CA,1689079905
43,georgetown,5.4112,100.3354,29.97,62,20,1.54,MY,1689079850
44,bilibino,68.0546,166.4372,11.61,75,93,1.0,RU,1689079906
45,nova sintra,14.8667,-24.7167,21.99,76,51,3.47,CV,1689079906
46,el alto,-4.2714,-81.2147,20.81,71,0,3.53,PE,1689079688
47,thompson,55.7435,-97.8558,11.09,82,20,2.57,CA,1689079907
48,isafjordur,66.0755,-23.124,14.02,47,0,4.12,IS,1689079908
49,bikenibeu village,1.3673,173.1241,27.98,83,40,2.06,KI,1689079908
50,stanley,54.868,-1.6985,20.29,65,20,6.69,GB,1689079909
51,kangding,30.0513,101.9603,18.52,99,100,1.69,CN,1689079909
52,solnechnyy,50.7214,136.6319,17.07,52,100,1.73,RU,1689079910
53,mosjoen,65.836,13.1908,26.29,41,0,4.12,NO,1689079910
54,timbuktu,16.7735,-3.0074,39.17,22,11,3.12,ML,1689079848
55,richards bay,-28.783,32.0377,17.31,69,90,6.85,ZA,1689079671
56,puerto rico,-26.796,-55.024,20.59,99,100,0.8,AR,1689079911
57,tura,25.5198,90.2201,24.67,96,100,3.27,IN,1689079912
58,pocao de pedras,-4.6667,-44.85,30.04,59,0,1.82,BR,1689079913
59,fortuna,40.5982,-124.1573,14.4,96,100,2.57,US,1689079913
60,flying fish cove,-10.4217,105.6791,24.82,88,100,6.17,CX,1689079914
61,sabang,5.8933,95.3214,28.2,73,82,5.3,ID,1689079915
62,dakhla,23.6848,-15.958,25.01,69,10,14.92,EH,1689079915
63,bethel,41.3712,-73.414,23.82,74,0,0.45,US,1689079916
64,tarauaca,-8.1614,-70.7656,26.46,72,1,0.9,BR,1689079916
65,guerrero negro,27.9769,-114.0611,19.72,71,100,1.3,MX,1689079917
66,wailua homesteads,22.0669,-159.378,25.44,86,100,5.66,US,1689079917
67,haiku-pauwela,20.9219,-156.3051,24.47,75,0,3.6,US,1689079918
68,papatowai,-46.5619,169.4708,6.88,83,100,3.83,NZ,1689079918
69,flin flon,54.7682,-101.865,11.91,82,75,0.0,CA,1689079919
70,punta del este,-34.9667,-54.95,11.04,80,75,2.68,UY,1689079919
71,kerikeri,-35.2268,173.9474,7.73,91,40,2.37,NZ,1689079920
72,polyarnyy,69.1989,33.4478,22.59,41,21,2.59,RU,1689079920
73,suva,-18.1416,178.4415,22.71,78,75,1.54,FJ,1689079921
74,atar,20.5169,-13.0499,33.03,49,10,11.83,MR,1689079921
75,mundemba,4.9479,8.8724,28.88,73,74,2.91,CM,1689079921
76,al ghayzah,16.2079,52.176,29.68,76,21,6.48,YE,1689079922
77,khandyga,62.6667,135.6,18.8,71,52,2.41,RU,1689079922
78,christchurch,-43.5333,172.6333,8.84,92,20,2.24,NZ,1689079845
79,west island,-12.1568,96.8225,24.99,83,75,8.23,CC,1689079924
80,port-cartier,50.0334,-66.8654,15.42,95,100,8.39,CA,1689079924
81,valparaiso,-33.0393,-71.6273,15.56,60,75,2.06,CL,1689079925
82,vorgashor,67.5833,63.95,12.91,50,0,6.57,RU,1689079925
83,petropavlovsk-kamchatsky,53.0452,158.6483,8.33,100,20,1.0,RU,1689079926
84,jutai,-5.1833,-68.9,26.2,73,0,0.11,BR,1689079926
85,boende,-0.2167,20.8667,32.78,43,99,0.6,CD,1689079764
86,bengkulu,-3.8004,102.2655,25.88,88,100,3.38,ID,1689079611
87,ambon,-3.6954,128.1814,27.15,95,40,2.06,ID,1689079473
88,luderitz,-26.6481,15.1594,22.62,23,0,2.78,NA,1689079806
89,saint george,37.1041,-113.5841,26.08,34,0,3.6,US,1689079928
90,fale old settlement,-9.3852,-171.2468,28.14,78,100,7.59,TK,1689079929
91,khovd,48.0056,91.6419,15.4,60,99,4.71,MN,1689079751
92,ola,59.5833,151.2833,10.83,71,100,1.83,RU,1689079930
93,yichang,30.7144,111.2847,29.5,82,100,0.71,CN,1689079930
94,soio,-6.1349,12.3689,24.05,75,23,4.83,AO,1689079712
95,evergreen,39.6333,-105.3172,20.33,46,0,0.45,US,1689079931
96,albany,42.6001,-73.9662,22.6,84,8,0.45,US,1689079932
97,newman,37.3138,-121.0208,17.38,71,0,0.66,US,1689079932
98,pekan,3.4836,103.3996,24.06,88,100,3.27,MY,1689079933
99,kodiak,57.79,-152.4072,8.73,100,100,2.57,US,1689079933
100,egilsstadir,65.2653,-14.3948,7.95,81,100,8.23,IS,1689079934
101,ringkobing,56.0901,8.244,22.23,87,100,9.1,DK,1689079934
102,severoural'sk,60.1533,59.952,16.47,89,100,3.22,RU,1689079935
103,myshkin,57.7897,38.4545,16.61,50,99,6.26,RU,1689079935
104,mournies,35.4764,24.0092,32.22,45,0,6.17,GR,1689079936
105,kota bharu,6.1333,102.2386,28.97,83,20,0.0,MY,1689079324
106,vallenar,-28.5708,-70.7581,8.66,81,0,0.68,CL,1689079936
107,mount gambier,-37.8333,140.7667,9.39,94,56,3.2,AU,1689079937
108,madimba,-10.4,40.3333,30.62,45,20,7.2,TZ,1689079938
109,rio gallegos,-51.6226,-69.2181,-1.97,93,75,1.03,AR,1689079938
110,la ronge,55.1001,-105.2842,11.14,82,20,1.03,CA,1689079939
111,qaqortoq,60.7167,-46.0333,8.71,90,100,2.9,GL,1689079939
112,talnakh,69.4865,88.3972,9.56,55,100,4.03,RU,1689079939
113,phan thiet,10.9333,108.1,27.07,85,94,2.09,VN,1689079825
114,jalai nur,49.45,117.7,19.87,48,17,2.91,CN,1689079940
115,tadine,-21.55,167.8833,20.48,72,100,6.31,NC,1689079941
116,mana,5.6592,-53.7767,27.94,75,60,3.79,GF,1689079941
117,tiksi,71.6872,128.8694,6.94,82,100,2.17,RU,1689079942
118,college,64.8569,-147.8028,17.99,61,75,0.0,US,1689079943
119,port mathurin,-19.6833,63.4167,23.87,72,41,7.68,MU,1689079943
120,atherton,53.5237,-2.4935,19.56,86,97,1.79,GB,1689079933
121,taro,-8.3862,115.28,22.0,92,94,1.84,ID,1689079944
122,hastings,50.8552,0.5729,23.83,27,100,8.11,GB,1689079878
123,obock,12.25,43.0833,36.25,27,6,11.31,DJ,1689079746
124,minot air force base,48.4209,-101.3391,10.1,95,75,2.06,US,1689079945
125,hazorasp,41.3194,61.0742,40.91,7,0,4.56,UZ,1689079946
126,hamilton,39.1834,-84.5333,24.48,79,7,0.45,US,1689079946
127,gorom-gorom,14.4439,-0.2361,36.93,30,44,2.81,BF,1689079947
128,canton,23.1167,113.25,32.97,53,5,5.46,CN,1689079803
129,hauterive,46.0901,3.4459,35.42,31,4,1.3,FR,1689079948
130,prado,-17.3411,-39.2208,25.63,67,0,2.74,BR,1689079948
131,ascension,30.2169,-90.9001,28.93,92,40,0.0,US,1689079949
132,utrik,11.2278,169.8474,28.2,78,27,7.01,MH,1689079950
133,barranca,-10.75,-77.7667,20.06,82,24,3.3,PE,1689079950
134,tanout,14.9709,8.8879,37.72,17,6,1.65,NE,1689079951
135,berezovyy,51.6667,135.7,17.45,61,95,1.9,RU,1689079952
136,lata,40.1629,-8.3327,27.49,49,95,5.12,PT,1689079952
137,afaahiti,-17.75,-149.2833,22.93,80,63,10.04,PF,1689079953
138,namibe,-15.1961,12.1522,28.28,31,0,3.16,AO,1689079953
139,klyuchi,52.2667,79.1667,33.57,28,8,3.42,RU,1689079955
140,castillos,-34.1667,-53.8333,10.56,65,30,4.1,UY,1689079956
141,anadyr,64.75,177.4833,12.28,58,0,4.92,RU,1689079953
142,jamestown,42.097,-79.2353,23.9,71,0,3.09,US,1689079957
143,susuman,62.7833,148.1667,9.98,49,99,2.99,RU,1689079957
144,constantia,44.1833,28.65,28.38,53,85,7.97,RO,1689079842
145,victoria falls,-17.9235,25.843,18.06,27,0,7.72,ZW,1689079958
146,salinas,36.6777,-121.6555,14.84,94,100,0.0,US,1689079959
147,st. john's,47.5649,-52.7093,16.42,97,100,2.57,CA,1689079959
148,ordubad,38.9059,46.0234,30.24,36,83,2.09,AZ,1689079959
149,bayevo,53.2833,80.7667,27.96,54,88,1.37,RU,1689079960
150,touros,-5.1989,-35.4608,28.34,63,14,6.83,BR,1689079960
151,ancud,-41.8697,-73.8203,3.47,86,94,2.83,CL,1689079961
152,rawson,-43.3002,-65.1023,2.67,64,9,1.2,AR,1689079962
153,moyynkum,44.2914,72.9469,35.12,17,0,8.99,KZ,1689079962
154,wau,7.7029,27.9953,34.28,36,100,1.42,SS,1689079963
155,ivankiv,50.9386,29.8943,22.67,36,51,3.49,UA,1689079963
156,broome,42.2506,-75.833,22.27,77,0,1.54,US,1689079964
157,rongelap,11.1635,166.8941,28.08,80,10,6.2,MH,1689079964
158,ulsan,35.5372,129.3167,24.8,88,100,3.55,KR,1689079550
159,san agustin,20.5333,-103.4667,17.36,91,37,0.64,MX,1689079702
160,nar'yan-mar,67.6713,53.087,13.86,55,5,4.78,RU,1689079967
161,adrar,20.5022,-10.0711,38.32,21,13,1.0,MR,1689079969
162,invercargill,-46.4,168.35,5.2,93,4,3.96,NZ,1689079804
163,nova vicosa,-17.8919,-39.3719,25.76,66,0,2.58,BR,1689079970
164,cabo san lucas,22.8909,-109.9124,25.9,75,74,2.2,MX,1689079971
165,vangaindrano,-23.35,47.6,24.06,78,52,2.86,MG,1689079971
166,carnarvon,-24.8667,113.6333,18.21,64,0,6.26,AU,1689079831
167,arkhara,49.4212,130.0842,19.48,71,0,2.07,RU,1689079972
168,itacoatiara,-3.1431,-58.4442,29.07,63,1,2.79,BR,1689079972
169,wahpeton,46.2652,-96.6059,14.4,76,0,3.6,US,1689079973
170,kingston,17.997,-76.7936,29.58,73,20,2.06,JM,1689079777
171,labrador city,52.9463,-66.9114,19.95,73,75,5.66,CA,1689079974
172,nishinoomote,30.7333,131.0,26.87,88,75,4.79,JP,1689079974
173,guadalupe y calvo,26.1,-106.9667,13.08,82,9,2.33,MX,1689079975
174,saint-joseph,-21.3667,55.6167,24.21,74,44,0.54,RE,1689079977
175,port augusta,-32.5,137.7667,10.83,63,0,2.29,AU,1689079977
176,bahia de kino,28.8333,-111.9333,28.84,72,97,2.94,MX,1689079978
177,wegscheid,48.6014,13.7873,31.54,45,1,3.13,DE,1689079978
178,gadzhiyevo,69.2551,33.3362,22.81,40,22,2.94,RU,1689079979
179,port blair,11.6667,92.75,27.02,78,75,5.14,IN,1689079979
180,lerwick,60.1545,-1.1494,15.0,94,100,7.31,GB,1689079980
181,segou,13.4317,-6.2157,34.06,39,99,3.22,ML,1689079719
182,skaelskor,55.2506,11.2935,22.48,62,100,6.94,DK,1689079980
183,yoko,5.5333,12.3167,25.95,68,62,1.35,CM,1689079981
184,mikhaylovsk,45.1283,42.0256,19.12,68,40,10.0,RU,1689079981
185,palmer,42.1584,-72.3287,23.68,69,40,4.12,US,1689079751
186,kedougou,12.5579,-12.1743,27.32,74,40,1.03,SN,1689079860
187,hithadhoo,-0.6,73.0833,27.76,70,23,1.86,MV,1689079984
188,lazaro cardenas,17.9583,-102.2,24.57,86,100,2.83,MX,1689079985
189,sola,-13.8833,167.55,24.92,72,100,10.23,VU,1689079985
190,anloga,5.7947,0.8973,26.94,76,84,6.72,GH,1689079986
191,el granada,37.5027,-122.4694,14.38,93,100,2.57,US,1689079986
192,bemidji,47.4736,-94.8803,11.62,89,0,2.57,US,1689079987
193,la foa,-21.7108,165.8276,18.07,69,11,2.26,NC,1689079987
194,mulanje,-16.0316,35.5,18.16,59,90,5.08,MW,1689079723
195,callao,-12.0667,-77.15,21.16,73,100,3.6,PE,1689079988
196,pemangkat,1.1667,108.9667,26.36,84,81,3.71,ID,1689079989
197,chifeng,42.2683,118.9636,24.41,55,100,3.79,CN,1689079989
198,ellsworth,44.5434,-68.4195,18.49,98,100,0.0,US,1689079990
199,tyumen,57.1522,65.5272,35.19,36,0,4.0,RU,1689079990
200,rosso,16.4986,-15.8153,33.93,45,96,7.66,SN,1689079991
201,souillac,-20.5167,57.5167,26.21,57,40,3.09,MU,1689079992
202,balabac,7.9868,117.0645,27.79,78,100,4.25,PH,1689079992
203,codrington,-38.2667,141.9667,9.78,95,24,4.73,AU,1689079994
204,bayanhongor,46.7167,100.1167,16.96,43,100,1.66,MN,1689079750
205,ugoofaaru,5.6667,73.0,28.04,76,49,5.43,MV,1689079996
206,hasaki,35.7333,140.8333,27.9,88,0,3.86,JP,1689079997
207,crookston,47.7741,-96.6081,13.27,82,0,0.0,US,1689079999
208,turpan,42.9333,89.1667,35.73,12,90,9.17,CN,1689079723
209,pisco,-13.7,-76.2167,19.03,77,100,2.57,PE,1689080000
210,vadso,70.0744,29.7487,27.49,59,0,4.63,NO,1689080000
211,hizan,38.2257,42.4278,25.97,28,9,5.23,TR,1689080001
212,hawaiian paradise park,19.5933,-154.9731,21.61,98,98,1.44,US,1689080001
213,pitkyaranta,61.5734,31.4792,18.45,45,3,2.05,RU,1689080002
214,mohr,54.3528,9.7167,28.97,45,75,7.2,DE,1689080002
215,whitehorse,60.7161,-135.0538,12.67,62,100,3.6,CA,1689080003
216,shengli,37.4564,118.4856,29.77,55,2,4.41,CN,1689080003
217,lysekil,58.2743,11.4358,20.57,80,100,6.98,SE,1689080004
218,tinajo,29.0788,-13.7081,30.49,45,0,8.23,ES,1689080004
219,jaisinghnagar,23.7,81.3833,28.21,80,46,2.32,IN,1689080005
220,quellon,-43.1167,-73.6167,-1.86,100,10,0.0,CL,1689080005
221,yakeshi,49.2833,120.7333,16.62,65,98,0.84,CN,1689080006
222,karratha,-20.7377,116.8463,20.41,39,3,0.89,AU,1689080006
223,sitka,57.0531,-135.33,11.94,76,100,4.12,US,1689080006
224,nuuk,64.1835,-51.7216,7.71,100,100,8.49,GL,1689080007
225,yamada,39.4667,141.95,23.27,77,100,2.84,JP,1689079844
226,cockburn town,21.4612,-71.1419,28.71,78,7,7.34,TC,1689079848
227,mount hagen,-5.8581,144.2274,15.4,97,69,0.37,PG,1689080010
228,saltillo,25.4167,-101.0,19.68,56,0,0.0,MX,1689080010
229,stephenville,32.2207,-98.2023,29.93,63,0,3.09,US,1689080011
230,junin de los andes,-39.9504,-71.0694,2.08,92,100,1.48,AR,1689080012
231,anna regina,7.2644,-58.5077,27.41,85,4,5.02,GY,1689079747
232,san antonio de pale,-1.4014,5.6325,23.02,82,4,5.15,GQ,1689080013
233,gulf shores,30.246,-87.7008,26.99,82,75,0.0,US,1689080013
234,tsiombe,-25.3,45.4833,22.54,63,81,7.72,MG,1689080014
235,weno,7.4515,151.8468,28.63,76,94,4.31,FM,1689080014
236,cidade velha,14.9167,-23.6167,29.26,58,20,5.14,CV,1689080015
237,bredasdorp,-34.5322,20.0403,14.73,53,4,2.6,ZA,1689080015
238,regina,50.4501,-104.6178,11.13,74,75,6.17,CA,1689080016
239,gelibolu,40.4103,26.6708,30.12,26,45,5.41,TR,1689080016
240,baotou,40.6522,109.8222,26.81,46,100,3.74,CN,1689079381
241,saint-philippe,-21.3585,55.7679,24.77,72,48,1.52,RE,1689080017
242,tosontsengel,48.7567,98.2839,13.92,73,15,2.0,MN,1689080018
243,moapa valley,36.5805,-114.4703,29.61,33,4,1.42,US,1689080018
244,pacific grove,36.6177,-121.9166,13.01,95,100,0.45,US,1689080019
245,georgiyevka,43.0369,74.7114,34.02,20,0,8.0,KZ,1689080020
246,al kharijah,25.4514,30.5464,38.32,15,1,4.88,EG,1689080020
247,basco,20.4487,121.9702,29.75,75,76,6.52,PH,1689080021
248,queenstown,-31.8976,26.8753,12.66,33,0,1.48,ZA,1689079589
249,dunedin,-45.8742,170.5036,8.22,71,100,1.34,NZ,1689080022
250,hsinchu,24.8036,120.9686,31.03,77,99,0.45,TW,1689079836
251,longyearbyen,78.2186,15.6401,9.91,66,75,6.17,SJ,1689080023
252,port macquarie,-31.4333,152.9167,10.52,78,0,2.55,AU,1689080023
253,colonia,50.9333,6.95,34.68,32,0,2.57,DE,1689080024
254,katsuura,35.1333,140.3,24.57,92,0,5.96,JP,1689080024
255,dzhetygara,52.1908,61.2006,36.34,19,7,6.51,KZ,1689080024
256,remire-montjoly,4.9167,-52.2667,28.02,74,40,3.6,GF,1689080026
257,el porvenir,13.7617,-87.3458,24.63,80,96,2.22,HN,1689080026
258,mount pearl,47.5166,-52.7813,15.96,95,100,2.57,CA,1689080027
259,minas de marcona,-15.2119,-75.1103,13.1,85,92,3.55,PE,1689080027
260,entebbe,0.0644,32.4469,27.18,57,20,3.6,UG,1689080028
261,coquimbo,-29.9533,-71.3436,10.85,81,0,1.54,CL,1689080028
262,la mira,18.035,-102.3266,24.05,86,100,2.64,MX,1689080029
263,tazovsky,67.4667,78.7,12.12,53,4,8.07,RU,1689080029
264,posse,-14.0931,-46.3694,27.71,36,0,2.81,BR,1689080030
265,seaside,36.6111,-121.8516,13.28,95,100,0.0,US,1689080030
266,aripuana,-9.1667,-60.6333,27.87,39,0,0.81,BR,1689080031
267,palopo,-2.9996,120.1921,25.69,85,100,0.92,ID,1689080032
268,sihanoukville,10.6093,103.5296,27.97,89,40,2.06,KH,1689079733
269,chimoio,-19.1164,33.4833,14.97,76,75,6.36,MZ,1689080034
270,winnipeg,49.8844,-97.147,15.01,82,40,3.09,CA,1689080034
271,laghouat,33.8,2.8651,40.67,9,64,1.4,DZ,1689080035
272,conception bay south,47.4999,-52.9981,16.29,93,75,2.57,CA,1689080035
273,yangambi,0.8102,24.4336,33.61,39,81,1.79,CD,1689079762
274,palikir - national government center,6.9248,158.1611,27.92,76,90,4.73,FM,1689080036
275,puerto ayora,-0.7393,-90.3518,25.31,94,100,2.68,EC,1689080037
276,ilulissat,69.2167,-51.1,6.09,90,100,2.4,GL,1689080037
277,paradip garh,20.3167,86.6167,29.05,78,100,4.4,IN,1689080038
278,kratie,12.4881,106.0188,27.08,79,99,0.73,KH,1689080038
279,badger,64.8,-147.5333,17.95,72,100,0.0,US,1689080039
280,aykhal,66.0,111.5,13.98,84,100,7.04,RU,1689080040
281,kalamata,37.0389,22.1142,32.87,35,20,4.12,GR,1689080041
282,meiktila,20.8667,95.8667,29.8,57,95,7.61,MM,1689080041
283,amasra,41.7463,32.3863,25.69,52,2,2.46,TR,1689080042
284,dera nanak,32.0373,75.0279,34.92,37,0,2.45,IN,1689080043
285,horta,38.5333,-28.6333,21.8,96,75,4.92,PT,1689080043
286,yuzhno-kurilsk,44.0306,145.8556,15.64,99,100,2.06,RU,1689080044
287,poshekhon'ye,58.4993,39.1353,18.26,42,83,4.89,RU,1689080045
288,chonchi,-42.6128,-73.8092,0.07,96,52,0.41,CL,1689080045
289,tari,12.4086,4.4914,35.18,39,11,3.03,NG,1689080046
290,barcelos,41.5388,-8.6151,27.73,55,97,4.88,PT,1689080046
291,wad rawah,15.1603,33.1397,34.66,35,100,7.15,SD,1689080047
292,holualoa,19.6228,-155.9522,20.99,85,93,2.24,US,1689080048
293,pokrovsk,48.282,37.1758,19.6,65,98,4.83,UA,1689080049
294,kupang,-10.1667,123.5833,25.1,77,95,5.46,ID,1689080049
295,brewton,31.1052,-87.0722,27.41,91,0,0.31,US,1689080050
296,puerto deseado,-47.7503,-65.8938,0.16,79,78,1.53,AR,1689080050
297,freeport,40.6576,-73.5832,26.12,59,20,3.09,US,1689080051
298,guiuan,11.0333,125.7247,28.94,75,72,2.36,PH,1689080051
299,marsh harbour,26.5412,-77.0636,29.1,75,98,3.64,BS,1689080052
300,alo,7.4178,6.7371,29.68,72,100,1.87,NG,1689080052
301,san francisco,37.7749,-122.4194,14.82,92,20,4.02,US,1689080008
302,lubango,-14.9172,13.4925,20.77,18,0,3.34,AO,1689080054
303,aden,12.7794,45.0367,32.15,68,7,4.63,YE,1689080054
304,santo antonio,-6.3106,-35.4789,27.92,61,3,6.33,BR,1689080055
305,borogontsy,62.6683,131.1683,20.35,64,100,2.52,RU,1689080055
306,lisala,2.15,21.5167,31.36,51,100,0.44,CD,1689080056
307,nouadhibou,20.931,-17.0347,24.99,73,40,5.66,MR,1689080056
308,biograd na moru,43.9433,15.4519,33.39,48,8,3.0,HR,1689080057
309,smithers,54.7804,-127.1743,10.18,100,0,1.03,CA,1689080057
310,ataq,14.5377,46.8319,35.77,23,61,4.95,YE,1689080058
311,bathurst,-33.4166,149.5806,7.13,96,85,1.97,AU,1689079853
312,floro,61.5996,5.0328,21.24,68,75,2.57,NO,1689080058
313,westport,41.1415,-73.3579,25.05,73,0,2.24,US,1689080059
314,yung shue wan,22.2333,114.1167,31.98,78,2,0.45,HK,1689080060
315,qashyr,53.0675,76.1036,35.46,25,28,3.31,KZ,1689080060
316,itoman,26.1247,127.6694,29.21,87,40,6.17,JP,1689079922
317,mirny,62.5353,113.9611,20.13,88,100,3.13,RU,1689079858
318,taoudenni,22.6783,-3.9836,45.4,6,24,3.45,ML,1689080062
319,cutral-co,-38.9469,-69.2089,1.62,10,100,0.45,AR,1689080062
320,ponta delgada,37.7333,-25.6667,22.4,94,40,4.12,PT,1689080063
321,christies beach,-35.1396,138.4698,13.18,67,0,2.68,AU,1689080063
322,dongola,19.1667,30.4833,41.1,9,10,6.11,SD,1689080064
323,kendari,-3.945,122.4989,24.23,85,100,1.72,ID,1689079824
324,saldanha,-33.0117,17.9442,18.03,51,0,3.02,ZA,1689080065
325,east london,-33.0153,27.9116,18.52,52,0,6.69,ZA,1689080058
326,novyy turtkul',41.55,61.0167,40.95,7,0,4.32,UZ,1689080066
327,essaouira,31.5125,-9.77,34.72,40,0,4.63,MA,1689080066
328,whangarei,-35.7317,174.3239,9.96,94,36,1.96,NZ,1689080067
329,mindif,10.3976,14.4363,33.19,32,76,3.36,CM,1689080067
330,bastrop,32.7562,-91.8724,25.94,96,100,0.45,US,1689080068
331,pueblo west,38.35,-104.7227,24.74,34,0,1.84,US,1689080068
332,cole harbour,44.6724,-63.4751,18.66,98,100,7.72,CA,1689080069
333,kineshma,57.4391,42.1289,14.31,59,100,5.68,RU,1689080069
334,chom bueng,13.62,99.5917,27.36,78,100,1.46,TH,1689080070
335,ta`u,-14.2336,-169.5144,26.97,84,100,8.84,AS,1689080070
336,santa cruz,-17.8,-63.1667,25.03,83,75,6.69,BO,1689080071
337,xilin hot,43.9667,116.0333,22.67,63,100,5.43,CN,1689080071
338,zimapan,20.75,-99.35,16.64,85,6,0.97,MX,1689080071
339,tromso,69.6496,18.957,22.01,49,0,4.63,NO,1689080072
340,thoen,17.6129,99.2161,25.82,86,100,0.73,TH,1689080072
341,usogorsk,63.4106,48.6872,18.68,43,92,4.92,RU,1689080073
342,las vegas,36.175,-115.1372,31.9,21,0,4.92,US,1689080042
343,paita,-5.0892,-81.1144,22.08,80,0,5.09,PE,1689080074
344,usinsk,65.9939,57.5281,17.49,44,100,3.33,RU,1689080074
345,dornstadt,48.467,9.9443,34.62,48,8,4.07,DE,1689080075
346,bonthe,7.5264,-12.505,26.66,80,95,4.02,SL,1689080075
347,kalmunai,7.4167,81.8167,28.46,73,100,4.07,LK,1689080076
348,tamale,9.4008,-0.8393,31.84,51,100,3.15,GH,1689079852
349,alta,69.9689,23.2717,28.59,30,0,6.17,NO,1689080077
350,olyokminsk,60.3736,120.4264,17.61,90,100,2.11,RU,1689080077
351,loiza,18.4313,-65.8802,31.16,78,40,6.69,PR,1689080078
352,lloydminster,53.2835,-110.0016,11.12,82,40,3.6,CA,1689080078
353,la gi,10.6667,107.7833,28.29,79,100,3.83,VN,1689080079
354,sibu,2.3,111.8167,24.17,100,40,1.54,MY,1689080079
355,onega,63.9061,38.1404,17.96,39,5,3.69,RU,1689080080
356,eraan,9.0629,117.7016,26.4,87,100,1.22,PH,1689080080
357,shakawe,-18.3667,21.85,19.34,15,1,6.31,BW,1689080081
358,praia da vitoria,38.7333,-27.0667,25.14,73,20,2.88,PT,1689080081
359,nelson bay,-32.7167,152.15,11.11,91,14,1.79,AU,1689080082
360,tocopilla,-22.092,-70.1979,18.01,67,7,2.71,CL,1689080082
361,bathsheba,13.2167,-59.5167,27.34,94,40,4.12,BB,1689080083
362,uturoa,-16.7333,-151.4333,26.84,68,59,8.94,PF,1689080083
363,lachi,33.3833,71.3386,37.97,30,0,3.22,PK,1689080084
364,port-vila,-17.7338,168.3219,14.78,94,20,1.03,VU,1689079975
365,lexington,37.9887,-84.4777,23.23,82,0,1.54,US,1689079973
366,antonio enes,-16.2325,39.9086,20.64,85,61,7.96,MZ,1689080085
367,novyy urengoy,66.0833,76.6333,17.82,38,6,7.33,RU,1689080085
368,lakhnadon,22.6,79.6,25.17,78,100,4.66,IN,1689080086
369,brezina,33.0989,1.2608,39.86,10,4,2.62,DZ,1689080086
370,kenora,49.8167,-94.4337,12.54,87,20,3.6,CA,1689080087
371,gotsucho,35.0,132.2167,24.61,91,100,2.81,JP,1689079802
372,sarikei,2.1167,111.5167,23.94,97,100,0.58,MY,1689080088
373,kapa'a,22.0752,-159.319,26.18,84,100,5.66,US,1689080088
374,ketchikan,55.3422,-131.6461,12.26,94,100,0.0,US,1689080089
375,luanda,-8.8368,13.2343,24.28,68,1,5.83,AO,1689080089
376,bafata,12.1667,-14.75,25.31,85,100,1.46,GW,1689080090
377,puerto baquerizo moreno,-0.9,-89.6,24.73,82,68,5.61,EC,1689080090
378,saint-georges,12.0564,-61.7485,27.82,89,40,2.57,GD,1689080091
379,daudnagar,25.0333,84.4,36.72,41,67,2.34,IN,1689080091
380,santana,-0.0583,-51.1817,29.1,79,40,4.63,BR,1689080092
381,akureyri,65.6835,-18.0878,10.96,58,75,8.23,IS,1689080092
382,portland,45.5234,-122.6762,15.19,83,42,0.45,US,1689080092
383,baiti,13.745,-14.7482,29.79,61,100,2.88,SN,1689080093
384,yaren,-0.5472,166.916,28.2,73,18,2.02,NR,1689080094
385,ko lanta,7.5336,99.0865,28.17,74,100,5.56,TH,1689080094
386,coahuayana de hidalgo,18.7,-103.6583,25.82,77,52,1.33,MX,1689080095
387,idfu,24.9803,32.8747,40.44,12,0,3.56,EG,1689080095
388,simenqian,27.4872,110.8861,27.0,79,95,1.58,CN,1689080096
389,pingxiang,27.6167,113.85,29.7,65,81,1.8,CN,1689080096
390,belalcazar,2.6547,-75.9928,15.39,96,100,0.52,CO,1689080097
391,enewetak,11.3474,162.3373,28.36,78,23,6.6,MH,1689080097
392,tralee,52.2704,-9.7026,17.14,77,75,4.12,IE,1689080098
393,urzhar,47.093,81.6294,29.06,22,46,4.79,KZ,1689080098
394,mogadishu,2.0371,45.3438,28.93,79,40,8.23,SO,1689080099
395,cape canaveral,28.4058,-80.6048,28.93,84,0,4.12,US,1689080099
396,machico,32.7,-16.7667,27.06,65,20,6.69,PT,1689080100
397,revda,56.801,59.9303,29.22,39,94,3.56,RU,1689080101
398,mar del plata,-38.0023,-57.5575,9.49,93,40,2.06,AR,1689079979
399,reyes,-14.3167,-67.3833,24.09,100,40,0.0,BO,1689080102
400,andalgala,-27.5819,-66.3165,12.73,65,58,1.02,AR,1689080102
401,grootfontein,-19.5667,18.1167,16.61,13,0,9.8,NA,1689079805
402,lilongwe,-13.9669,33.7873,21.67,46,23,3.81,MW,1689080103
403,wad az zaki,14.4619,32.2065,33.41,40,90,7.71,SD,1689080105
404,hammerfest,70.6634,23.6821,22.25,49,0,5.14,NO,1689080105
405,leava,-14.3,-178.1667,27.3,80,100,9.32,WF,1689080106
406,heyuan,23.7333,114.6833,28.17,80,17,1.96,CN,1689080106
407,belaya glina,46.07,40.86,22.31,60,91,6.74,RU,1689080107
408,amga,60.8953,131.9608,19.0,68,100,2.18,RU,1689080107
409,baise city,23.8997,106.6133,28.61,79,100,2.04,CN,1689080108
410,nurmes,63.5421,29.1397,20.44,36,78,1.71,FI,1689080108
411,ust-nera,64.5667,143.2,14.42,68,36,1.59,RU,1689080109
412,tres arroyos,-38.3739,-60.2798,4.88,83,6,1.38,AR,1689080109
413,stawell,-37.05,142.7667,10.43,90,85,1.92,AU,1689080110
414,thunder bay,48.4001,-89.3168,12.99,71,40,5.14,CA,1689080110
415,khrystynivka,48.8249,29.9681,21.16,47,100,3.6,UA,1689080111
416,tofol,5.3248,163.0078,28.19,77,99,3.67,FM,1689080111
417,qurayyat,31.3318,37.3428,37.1,14,0,2.57,SA,1689080112
418,nolinsk,57.5596,49.9363,28.05,44,98,11.13,RU,1689080112
419,malayer,34.2969,48.8235,33.92,10,0,5.99,IR,1689080113
420,peniche,39.3558,-9.3811,25.04,76,7,5.61,PT,1689080114
421,hurricane,37.1753,-113.2899,26.44,33,8,1.77,US,1689080114
422,laughlin,35.1678,-114.573,33.19,29,0,1.34,US,1689080115
423,kelibia,36.8476,11.0939,30.14,84,40,4.12,TN,1689080115
424,rodolfo sanchez taboada,31.7167,-116.5667,16.72,82,0,1.01,MX,1689080116
425,shizuishan,39.2333,106.7694,27.42,41,100,2.24,CN,1689080116
426,caringin,-6.7061,106.8214,26.31,91,80,0.11,ID,1689080117
427,sao tome,0.3365,6.7273,28.02,74,20,7.72,ST,1689080117
428,morehead city,34.7229,-76.726,27.24,86,0,3.09,US,1689080118
429,gorontalo,0.5412,123.0595,24.29,91,98,1.85,ID,1689080119
430,abu jibeha,11.4562,31.2285,22.63,88,100,4.74,SD,1689080119
431,hobyo,5.3505,48.5268,27.68,71,34,13.91,SO,1689080120
432,sisimiut,66.9395,-53.6735,7.01,96,100,2.63,GL,1689080002
433,sassandra,4.95,-6.0833,26.44,80,76,3.43,CI,1689079842
434,gerash,27.6652,54.1371,41.08,6,0,6.31,IR,1689080122
435,inverell,-29.7833,151.1167,5.62,69,0,2.08,AU,1689080122
436,sa'dah,16.9402,43.7639,31.31,16,100,4.65,YE,1689080123
437,sovetskaya gavan',48.9723,140.2878,14.66,56,100,1.59,RU,1689080123
438,mil'kovo,55.6078,37.7956,17.11,69,100,5.97,RU,1689080124
439,longgang,37.6508,120.3286,25.69,78,0,4.26,CN,1689080124
440,keflavik,64.0049,-22.5624,17.95,58,20,7.2,IS,1689080125
441,buka,40.8108,69.1986,41.39,7,0,2.11,UZ,1689080125
442,crane,31.3974,-102.3501,26.52,61,18,6.03,US,1689080126
443,bhamo,24.2667,97.2333,24.42,98,100,0.56,MM,1689080034
444,vilyuchinsk,52.9306,158.4028,9.15,89,43,1.14,RU,1689080127
445,ilanskiy,56.2358,96.065,22.65,53,100,3.98,RU,1689080127
446,abalak,58.1286,68.5944,30.67,60,95,2.17,RU,1689080128
447,puerto aysen,-45.4,-72.7,-3.58,98,78,1.22,CL,1689080128
448,igarka,67.4667,86.5833,16.15,45,36,5.72,RU,1689080128
449,sarykemer,43.0,71.5,35.71,9,0,9.96,KZ,1689080129
450,simpang,-1.2667,104.0833,22.84,98,100,1.42,ID,1689080129
451,kirensk,57.7853,108.1119,20.53,64,100,2.83,RU,1689080103
452,vila velha,-20.3297,-40.2925,23.97,79,0,1.03,BR,1689080130
453,hilo,19.7297,-155.09,22.38,91,100,1.34,US,1689080131
454,marion,39.7684,-86.1555,23.06,78,2,3.82,US,1689080131
455,pitimbu,-7.4706,-34.8086,28.33,76,26,6.11,BR,1689080132
456,balaipungut,1.05,101.2833,24.08,96,100,1.64,ID,1689080132
457,baiyin,36.5583,104.2081,23.69,55,100,5.09,CN,1689079902
458,ouled mimoun,34.9047,-1.0339,33.01,8,75,6.28,DZ,1689080133
459,leticia,-4.2153,-69.9406,23.03,94,40,1.54,CO,1689080134
460,mian channun,30.44,72.3543,41.7,24,6,0.15,PK,1689080134
461,peterhead,57.5058,-1.7981,18.58,87,82,4.22,GB,1689080135
462,gandai,21.6667,81.1,27.9,79,57,5.23,IN,1689080136
463,kurtamysh,54.9103,64.4319,34.97,32,100,5.6,RU,1689080136
464,gummi,12.1436,5.1081,34.4,45,10,3.48,NG,1689080137
465,mont-laurier,46.5501,-75.4993,19.79,64,100,1.27,CA,1689080137
466,murgab,37.4966,61.9714,42.93,5,0,3.09,TM,1689080137
467,taltal,-25.4,-70.4833,15.26,72,100,1.06,CL,1689080139
468,sidi bou ali,35.9567,10.4731,40.25,70,20,5.66,TN,1689080140
469,kavalerovo,44.2661,135.0572,16.46,100,100,1.3,RU,1689080140
470,necochea,-38.5473,-58.7368,8.06,74,70,2.39,AR,1689080141
471,argostolion,38.1811,20.489,29.35,51,0,3.0,GR,1689080141
472,labytnangi,66.6572,66.4183,17.82,40,0,5.45,RU,1689080142
473,murzuq,25.9155,13.9184,36.96,9,0,8.05,LY,1689080142
474,peace river,56.2501,-117.286,17.17,94,75,1.03,CA,1689080143
475,kapuskasing,49.4169,-82.4331,13.05,82,20,3.09,CA,1689080144
476,tambopata,-12.7333,-69.1833,23.94,88,0,0.0,PE,1689080144
477,likiep,9.8251,169.3107,27.72,80,53,5.33,MH,1689080145
478,pimenta bueno,-11.6725,-61.1936,27.18,42,0,0.32,BR,1689080145
479,shulan,44.4167,126.95,18.88,86,60,2.36,CN,1689080145
480,mpika,-11.8343,31.4529,22.91,37,22,4.45,ZM,1689079870
481,kiruna,67.8557,20.2251,24.51,38,0,5.14,SE,1689080046
482,saguenay,48.4168,-71.0657,20.6,95,100,4.63,CA,1689080148
483,ginir,7.1333,40.7,23.58,48,41,3.22,ET,1689080148
484,aral,40.5156,81.2636,31.92,22,21,1.52,CN,1689080149
485,plettenberg bay,-34.0527,23.3716,13.53,58,0,1.72,ZA,1689080149
486,xichang,27.8964,102.2634,22.62,87,100,2.33,CN,1689080146
487,bassila,9.0081,1.6654,29.41,60,88,2.14,BJ,1689080150
488,puerto ayacucho,5.6639,-67.6236,26.21,86,97,1.63,VE,1689080150
489,san patricio,28.017,-97.5169,29.93,86,1,4.39,US,1689080151
490,acarau,-2.8856,-40.12,29.3,56,0,6.81,BR,1689080151
491,swift current,50.2834,-107.8014,10.45,87,100,5.66,CA,1689080152
492,freetown,8.484,-13.2299,24.84,88,75,6.17,SL,1689079942
493,mahina,-17.5065,-149.489,23.87,73,40,1.54,PF,1689080153
494,bellary,15.15,76.9333,30.72,48,100,7.1,IN,1689080153
495,katsuren-haebaru,26.3369,127.8719,29.11,88,75,5.14,JP,1689080154
496,itaituba,-4.2761,-55.9836,27.09,83,20,0.0,BR,1689080154
497,camayenne,9.535,-13.6878,28.05,74,75,3.09,GN,1689080154
498,la passe,45.5549,-0.8967,29.13,59,35,5.52,FR,1689080155
499,naze,28.3667,129.4833,27.51,85,99,4.03,JP,1689079968
500,chinde,26.8418,88.0763,20.54,91,100,0.34,NP,1689080156
501,mersing,2.4312,103.8405,24.95,88,20,1.54,MY,1689080156
502,alice springs,-23.7,133.8833,7.75,76,0,3.54,AU,1689080157
503,klatovy,49.3955,13.2951,35.38,41,4,3.59,CZ,1689080157
504,island harbour,50.724,-1.2758,21.85,79,100,3.58,GB,1689080158
505,oamaru,-45.0784,170.9801,5.77,90,100,2.25,NZ,1689080158
506,happy valley-goose bay,53.3168,-60.3315,24.17,69,40,3.6,CA,1689080159
507,alofi,-19.0595,-169.9187,22.94,100,6,1.54,NU,1689080159
508,warman,52.3168,-106.5679,11.95,71,100,5.14,CA,1689080160
509,iskateley,67.6803,53.1512,13.69,55,9,4.88,RU,1689080160
510,faya-largeau,17.9257,19.1043,41.26,10,98,4.8,TD,1689080161
511,gisborne,-38.6533,178.0042,8.72,88,14,2.37,NZ,1689080161
512,hadibu,12.65,54.0333,27.98,65,9,9.48,YE,1689080162
513,popondetta,-8.7537,148.2534,22.52,96,17,1.53,PG,1689080162
514,guarapari,-20.6667,-40.4975,23.83,61,7,1.49,BR,1689080163
515,alpine,32.835,-116.7664,23.15,47,0,0.0,US,1689080163
516,dolores,-36.3132,-57.6792,6.98,79,91,2.72,AR,1689080164
517,canatlan,24.5167,-104.7833,20.19,62,5,1.41,MX,1689080164
518,devils lake,48.1128,-98.8651,12.19,78,100,0.45,US,1689080165
519,halifax,44.6453,-63.5724,18.94,98,100,7.72,CA,1689080165
520,nadi,-17.8,177.4167,21.0,83,20,3.09,FJ,1689080166
521,phek,25.6667,94.5,17.27,98,100,0.81,IN,1689080166
522,vorkuta,67.5,64.0,13.42,49,0,6.43,RU,1689080167
523,lamu,-2.2717,40.902,26.93,74,97,6.18,KE,1689080167
524,leirvik,59.7798,5.5005,16.46,88,75,5.14,NO,1689080168
525,tippi,7.2,35.45,21.86,90,100,0.94,ET,1689080169
526,villa rica,33.7321,-84.9191,23.95,96,0,0.45,US,1689080170
527,fort bragg,35.139,-79.006,26.13,80,0,0.89,US,1689080170
528,mogocha,53.7333,119.7667,18.4,44,100,1.09,RU,1689080171
529,svetlyy,54.675,20.1347,23.03,51,51,3.7,RU,1689080171
530,sandnessjoen,66.0217,12.6316,26.29,60,0,2.57,NO,1689080172
531,pathein,16.7833,94.7333,26.8,85,100,3.83,MM,1689080172
532,grand falls-windsor,48.9332,-55.6649,19.72,79,95,3.28,CA,1689080173
533,parabel',58.6978,81.4825,18.65,59,100,4.78,RU,1689080173
534,old town,50.087,14.4202,33.31,41,0,3.13,CZ,1689080174
535,pudasjarvi,65.3833,26.9167,23.51,31,17,1.88,FI,1689080174
536,dennery,13.8996,-60.8879,29.05,91,40,7.2,LC,1689080175
537,iquique,-20.2208,-70.1431,17.02,71,5,1.51,CL,1689080175
538,bodaybo,57.8506,114.1933,18.23,92,90,1.29,RU,1689080176
539,campoverde,-8.4753,-74.8058,25.66,75,9,0.85,PE,1689080177
540,victorica,-36.2151,-65.4359,6.29,61,100,5.78,AR,1689080177
541,chaplynka,46.3651,33.5403,27.67,29,88,5.48,UA,1689080178
542,zag,46.9441,99.165,18.12,43,75,2.42,MN,1689080179
543,illapel,-31.6308,-71.1653,13.36,61,2,1.69,CL,1689080179
544,molde,62.7375,7.1591,18.91,77,75,2.06,NO,1689080180
545,maragogi,-9.0122,-35.2225,26.29,74,26,4.72,BR,1689080180
546,sao joao da barra,-21.6403,-41.0511,24.05,68,74,2.04,BR,1689080181
547,visakhapatnam,17.69,83.2093,31.94,74,75,5.14,IN,1689079499
548,harstad,68.799,16.5293,27.66,69,28,1.31,NO,1689080182
549,san fernando de apure,7.8878,-67.4724,25.43,95,100,2.22,VE,1689080182
550,poquoson,37.1224,-76.3458,27.79,82,0,3.6,US,1689080183
551,uhrichsville,40.3931,-81.3465,23.2,87,0,2.35,US,1689080183
552,namie,37.4833,141.0,27.21,75,82,2.43,JP,1689080149
553,vila franca do campo,37.7167,-25.4333,22.23,88,100,3.97,PT,1689080184
554,posto fiscal rolim de moura,-13.0833,-62.2667,27.95,45,0,0.87,BR,1689080184
555,tarfaya,27.9358,-12.9218,23.33,82,14,7.81,MA,1689080185
556,pangody,65.85,74.4859,18.64,37,3,5.3,RU,1689080186
557,tucuma,-0.1833,-50.05,29.0,66,6,3.39,BR,1689080186
558,canutama,-6.5339,-64.3831,29.43,51,0,0.46,BR,1689080186
559,johns creek,34.0289,-84.1986,24.5,78,0,1.07,US,1689080187
560,rabo de peixe,37.8,-25.5833,21.73,94,40,4.12,PT,1689080187
561,shima,24.4478,117.8111,30.01,88,1,1.4,CN,1689080188
562,muriti,-1.9833,32.9167,26.03,47,41,2.95,TZ,1689080188
563,cotui,19.0527,-70.1494,29.28,69,22,1.25,DO,1689080189
564,gulu,2.7746,32.299,26.13,62,94,0.7,UG,1689080189
565,san pedro pochutla,15.7333,-96.4667,24.84,75,99,1.64,MX,1689080190
566,sungai penuh,-2.0833,101.3833,19.05,98,100,1.53,ID,1689080191
567,kavieng,-2.5744,150.7967,27.59,81,80,5.21,PG,1689080191
568,quzhou,28.9594,118.8686,27.28,74,24,1.64,CN,1689080192
569,esperantina,-3.9017,-42.2336,31.08,44,0,2.6,BR,1689080192
570,shitanjing,39.2342,106.3439,22.99,57,100,1.94,CN,1689080193
571,carutapera,-1.195,-46.02,29.03,65,4,4.3,BR,1689080193
572,kayes,14.0,-11.0,31.19,53,79,0.99,ML,1689080194
573,celestun,20.8667,-90.4,27.04,83,10,4.87,MX,1689080195
574,kumylzhenskaya,49.8809,42.5898,21.66,61,90,5.68,RU,1689080196
575,chapeco,-27.0964,-52.6183,17.86,100,100,2.06,BR,1689079985
576,igaci,-9.5369,-36.6336,25.83,66,24,4.1,BR,1689080197
577,tilcara,-23.5776,-65.3509,10.32,14,0,2.96,AR,1689080197
578,turgen,43.4006,77.5933,30.07,29,0,4.24,KZ,1689080198
579,lezoux,45.8269,3.3792,34.79,36,0,2.57,FR,1689080198
580,pandan,14.0453,124.1694,27.78,84,95,2.8,PH,1689080199
581,at taj,24.2049,23.2857,35.87,11,2,4.49,LY,1689080199
582,bafia,4.75,11.2333,28.85,66,62,2.04,CM,1689080200
583,xalapa de enriquez,19.5333,-96.9167,16.98,81,19,2.04,MX,1689080200
584,acapulco de juarez,16.8634,-99.8901,26.84,76,66,1.91,MX,1689080201
585,kudahuvadhoo,2.6708,72.8944,28.1,72,71,2.91,MV,1689080201
586,san luis de la loma,17.2706,-100.8939,26.7,74,30,1.82,MX,1689080202
587,lautoka,-17.6167,177.4667,20.92,83,20,3.09,FJ,1689080203
